{
  "type": "FeatureCollection",
  "features": [
    {
      "type": "Feature",
      "geometry": {
        "type": "Point",
        "coordinates": [
          2.312500055,
          48.803989974
        ]
      },
      "properties": {
        "name": "Allée Anatole France / Avenue Henri Ravera D128",
        "context": "Bagneux, Hauts-de-Seine",
        "citycode": "92007",
        "depcode": "92"
      }
    },
    {
      "type": "Feature",
      "geometry": {
        "type": "Point",
        "coordinates": [
          2.31349345,
          48.801672639
        ]
      },
      "properties": {
        "name": "Allée Anatole France / Rue de Verdun",
        "context": "Bagneux, Hauts-de-Seine",
        "citycode": "92007",
        "depcode": "92"
      }
    },
    {
      "type": "Feature",
      "geometry": {
        "type": "Point",
        "coordinates": [
          2.306434536,
          48.794463546
        ]
      },
      "properties": {
        "name": "Allée de Chevreuse / Rue des Mathurins",
        "context": "Bagneux, Hauts-de-Seine",
        "citycode": "92007",
        "depcode": "92"
      }
    },
    {
      "type": "Feature",
      "geometry": {
        "type": "Point",
        "coordinates": [
          2.315720276,
          48.792395069
        ]
      },
      "properties": {
        "name": "Allée de l'Abbé Grégoire / Square Montesquieu",
        "context": "Bagneux, Hauts-de-Seine",
        "citycode": "92007",
        "depcode": "92"
      }
    },
    {
      "type": "Feature",
      "geometry": {
        "type": "Point",
        "coordinates": [
          2.315396503,
          48.790320809
        ]
      },
      "properties": {
        "name": "Allée de l'Abbé Grégoire / Square Victor Schœlcher",
        "context": "Bagneux, Hauts-de-Seine",
        "citycode": "92007",
        "depcode": "92"
      }
    },
    {
      "type": "Feature",
      "geometry": {
        "type": "Point",
        "coordinates": [
          2.312738499,
          48.792523526
        ]
      },
      "properties": {
        "name": "Allée de la Paix / Sentier des Amandiers",
        "context": "Bagneux, Hauts-de-Seine",
        "citycode": "92007",
        "depcode": "92"
      }
    },
    {
      "type": "Feature",
      "geometry": {
        "type": "Point",
        "coordinates": [
          2.313014407,
          48.791329671
        ]
      },
      "properties": {
        "name": "Allée des Charmilles / Rue du Docteur Schweitzer",
        "context": "Bagneux, Hauts-de-Seine",
        "citycode": "92007",
        "depcode": "92"
      }
    },
    {
      "type": "Feature",
      "geometry": {
        "type": "Point",
        "coordinates": [
          2.309379451,
          48.786767963
        ]
      },
      "properties": {
        "name": "Allée des Marronniers / Rue des Marronniers",
        "context": "Bagneux, Hauts-de-Seine",
        "citycode": "92007",
        "depcode": "92"
      }
    },
    {
      "type": "Feature",
      "geometry": {
        "type": "Point",
        "coordinates": [
          2.318915871,
          48.803193012
        ]
      },
      "properties": {
        "name": "Allée des Martyrs Châteaubriant / Avenue Henri Barbusse D77a",
        "context": "Bagneux, Hauts-de-Seine",
        "citycode": "92007",
        "depcode": "92"
      }
    },
    {
      "type": "Feature",
      "geometry": {
        "type": "Point",
        "coordinates": [
          2.319619916,
          48.803335166
        ]
      },
      "properties": {
        "name": "Allée des Martyrs Châteaubriant / Avenue Louis Pasteur",
        "context": "Bagneux, Hauts-de-Seine",
        "citycode": "92007",
        "depcode": "92"
      }
    },
    {
      "type": "Feature",
      "geometry": {
        "type": "Point",
        "coordinates": [
          2.319626508,
          48.803378757
        ]
      },
      "properties": {
        "name": "Allée des Martyrs Châteaubriant / Rond-Point des Martyrs de Châteaubriant",
        "context": "Bagneux, Hauts-de-Seine",
        "citycode": "92007",
        "depcode": "92"
      }
    },
    {
      "type": "Feature",
      "geometry": {
        "type": "Point",
        "coordinates": [
          2.311984123,
          48.799855262
        ]
      },
      "properties": {
        "name": "Allée des Orchidées / Avenue Henri Barbusse D77A",
        "context": "Bagneux, Hauts-de-Seine",
        "citycode": "92007",
        "depcode": "92"
      }
    },
    {
      "type": "Feature",
      "geometry": {
        "type": "Point",
        "coordinates": [
          2.312240579,
          48.801438651
        ]
      },
      "properties": {
        "name": "Allée des Orchidées / Rue de Verdun",
        "context": "Bagneux, Hauts-de-Seine",
        "citycode": "92007",
        "depcode": "92"
      }
    },
    {
      "type": "Feature",
      "geometry": {
        "type": "Point",
        "coordinates": [
          2.302246822,
          48.786825993
        ]
      },
      "properties": {
        "name": "Allée des Rosiers / Avenue du Maréchal Foch D74A",
        "context": "Bagneux, Hauts-de-Seine",
        "citycode": "92007",
        "depcode": "92"
      }
    },
    {
      "type": "Feature",
      "geometry": {
        "type": "Point",
        "coordinates": [
          2.305412499,
          48.791604403
        ]
      },
      "properties": {
        "name": "Allée des Sablons / Allée des Mathurins",
        "context": "Bagneux, Hauts-de-Seine",
        "citycode": "92007",
        "depcode": "92"
      }
    },
    {
      "type": "Feature",
      "geometry": {
        "type": "Point",
        "coordinates": [
          2.304996632,
          48.791610392
        ]
      },
      "properties": {
        "name": "Allée des Sablons / Square Fernand Léger",
        "context": "Bagneux, Hauts-de-Seine",
        "citycode": "92007",
        "depcode": "92"
      }
    },
    {
      "type": "Feature",
      "geometry": {
        "type": "Point",
        "coordinates": [
          2.311426631,
          48.802605237
        ]
      },
      "properties": {
        "name": "Allée des Tilleuls / Avenue Henri Ravera D128",
        "context": "Bagneux, Hauts-de-Seine",
        "citycode": "92007",
        "depcode": "92"
      }
    },
    {
      "type": "Feature",
      "geometry": {
        "type": "Point",
        "coordinates": [
          2.308517716,
          48.795140961
        ]
      },
      "properties": {
        "name": "Allée du Poitou / Avenue Albert Petit",
        "context": "Bagneux, Hauts-de-Seine",
        "citycode": "92007",
        "depcode": "92"
      }
    },
    {
      "type": "Feature",
      "geometry": {
        "type": "Point",
        "coordinates": [
          2.307871479,
          48.797419691
        ]
      },
      "properties": {
        "name": "Allée du Poitou / Rue des Meuniers",
        "context": "Bagneux, Hauts-de-Seine",
        "citycode": "92007",
        "depcode": "92"
      }
    },
    {
      "type": "Feature",
      "geometry": {
        "type": "Point",
        "coordinates": [
          2.308546677,
          48.795133517
        ]
      },
      "properties": {
        "name": "Allée du Poitou / Rue François Laurent Gibon",
        "context": "Bagneux, Hauts-de-Seine",
        "citycode": "92007",
        "depcode": "92"
      }
    },
    {
      "type": "Feature",
      "geometry": {
        "type": "Point",
        "coordinates": [
          2.311715289,
          48.799727183
        ]
      },
      "properties": {
        "name": "Allée Georges Brassens / Avenue Henri Barbusse D77A",
        "context": "Bagneux, Hauts-de-Seine",
        "citycode": "92007",
        "depcode": "92"
      }
    },
    {
      "type": "Feature",
      "geometry": {
        "type": "Point",
        "coordinates": [
          2.309887606,
          48.800978317
        ]
      },
      "properties": {
        "name": "Allée Jacques Brel / Rue de Verdun",
        "context": "Bagneux, Hauts-de-Seine",
        "citycode": "92007",
        "depcode": "92"
      }
    },
    {
      "type": "Feature",
      "geometry": {
        "type": "Point",
        "coordinates": [
          2.315537245,
          48.79245417
        ]
      },
      "properties": {
        "name": "Allée Mirabeau / Allée de l'Abbé Grégoire",
        "context": "Bagneux, Hauts-de-Seine",
        "citycode": "92007",
        "depcode": "92"
      }
    },
    {
      "type": "Feature",
      "geometry": {
        "type": "Point",
        "coordinates": [
          2.305208208,
          48.785095725
        ]
      },
      "properties": {
        "name": "Allée Paul Éluard / Avenue de Bourg-la-Reine D74",
        "context": "Bagneux, Hauts-de-Seine",
        "citycode": "92007",
        "depcode": "92"
      }
    },
    {
      "type": "Feature",
      "geometry": {
        "type": "Point",
        "coordinates": [
          2.305554025,
          48.786377705
        ]
      },
      "properties": {
        "name": "Allée Paul Éluard / Place des Tertres",
        "context": "Bagneux, Hauts-de-Seine",
        "citycode": "92007",
        "depcode": "92"
      }
    },
    {
      "type": "Feature",
      "geometry": {
        "type": "Point",
        "coordinates": [
          2.31067265,
          48.801979713
        ]
      },
      "properties": {
        "name": "Allée Prunier Hardy / Avenue Henri Ravera D128",
        "context": "Bagneux, Hauts-de-Seine",
        "citycode": "92007",
        "depcode": "92"
      }
    },
    {
      "type": "Feature",
      "geometry": {
        "type": "Point",
        "coordinates": [
          2.308007506,
          48.800619095
        ]
      },
      "properties": {
        "name": "Allée Prunier Hardy / Rue de l'Égalité",
        "context": "Bagneux, Hauts-de-Seine",
        "citycode": "92007",
        "depcode": "92"
      }
    },
    {
      "type": "Feature",
      "geometry": {
        "type": "Point",
        "coordinates": [
          2.321763737,
          48.796197326
        ]
      },
      "properties": {
        "name": "Avenue Albert Petit / Avenue Aristide Briand D920",
        "context": "Bagneux, Hauts-de-Seine",
        "citycode": "92007",
        "depcode": "92"
      }
    },
    {
      "type": "Feature",
      "geometry": {
        "type": "Point",
        "coordinates": [
          2.317152518,
          48.795866115
        ]
      },
      "properties": {
        "name": "Avenue Albert Petit / Avenue Paul Vaillant-Couturier D77",
        "context": "Bagneux, Hauts-de-Seine",
        "citycode": "92007",
        "depcode": "92"
      }
    },
    {
      "type": "Feature",
      "geometry": {
        "type": "Point",
        "coordinates": [
          2.318268149,
          48.796022267
        ]
      },
      "properties": {
        "name": "Avenue Albert Petit / Passage Wodey",
        "context": "Bagneux, Hauts-de-Seine",
        "citycode": "92007",
        "depcode": "92"
      }
    },
    {
      "type": "Feature",
      "geometry": {
        "type": "Point",
        "coordinates": [
          2.314239967,
          48.795553089
        ]
      },
      "properties": {
        "name": "Avenue Albert Petit / Rue des Buttes",
        "context": "Bagneux, Hauts-de-Seine",
        "citycode": "92007",
        "depcode": "92"
      }
    },
    {
      "type": "Feature",
      "geometry": {
        "type": "Point",
        "coordinates": [
          2.306454417,
          48.795042394
        ]
      },
      "properties": {
        "name": "Avenue Albert Petit / Rue des Mathurins",
        "context": "Bagneux, Hauts-de-Seine",
        "citycode": "92007",
        "depcode": "92"
      }
    },
    {
      "type": "Feature",
      "geometry": {
        "type": "Point",
        "coordinates": [
          2.321752722,
          48.796205498
        ]
      },
      "properties": {
        "name": "Avenue Albert Petit / Rue Marcel Bonnet D248",
        "context": "Bagneux, Hauts-de-Seine",
        "citycode": "92007",
        "depcode": "92"
      }
    },
    {
      "type": "Feature",
      "geometry": {
        "type": "Point",
        "coordinates": [
          2.313832307,
          48.795492673
        ]
      },
      "properties": {
        "name": "Avenue Albert Petit / Villa des Iris",
        "context": "Bagneux, Hauts-de-Seine",
        "citycode": "92007",
        "depcode": "92"
      }
    },
    {
      "type": "Feature",
      "geometry": {
        "type": "Point",
        "coordinates": [
          2.321482838,
          48.79627678
        ]
      },
      "properties": {
        "name": "Avenue Albert Petit / Voie Pompiers",
        "context": "Bagneux, Hauts-de-Seine",
        "citycode": "92007",
        "depcode": "92"
      }
    },
    {
      "type": "Feature",
      "geometry": {
        "type": "Point",
        "coordinates": [
          2.322874172,
          48.79881474
        ]
      },
      "properties": {
        "name": "Avenue Aristide Briand D920 / Avenue Benoît Guichon",
        "context": "Bagneux, Hauts-de-Seine",
        "citycode": "92007",
        "depcode": "92"
      }
    },
    {
      "type": "Feature",
      "geometry": {
        "type": "Point",
        "coordinates": [
          2.319741639,
          48.790872866
        ]
      },
      "properties": {
        "name": "Avenue Aristide Briand D920 / Avenue Paul Vaillant-Couturier",
        "context": "Bagneux, Hauts-de-Seine",
        "citycode": "92007",
        "depcode": "92"
      }
    },
    {
      "type": "Feature",
      "geometry": {
        "type": "Point",
        "coordinates": [
          2.325861394,
          48.806759125
        ]
      },
      "properties": {
        "name": "Avenue Aristide Briand D920 / Avenue Victor Hugo D77a",
        "context": "Bagneux, Hauts-de-Seine",
        "citycode": "92007",
        "depcode": "92"
      }
    },
    {
      "type": "Feature",
      "geometry": {
        "type": "Point",
        "coordinates": [
          2.320874976,
          48.793946694
        ]
      },
      "properties": {
        "name": "Avenue Aristide Briand D920 / Impasse Jeanne d'Arc",
        "context": "Bagneux, Hauts-de-Seine",
        "citycode": "92007",
        "depcode": "92"
      }
    },
    {
      "type": "Feature",
      "geometry": {
        "type": "Point",
        "coordinates": [
          2.323115633,
          48.799741762
        ]
      },
      "properties": {
        "name": "Avenue Aristide Briand D920 / Passage de la Bièvre",
        "context": "Bagneux, Hauts-de-Seine",
        "citycode": "92007",
        "depcode": "92"
      }
    },
    {
      "type": "Feature",
      "geometry": {
        "type": "Point",
        "coordinates": [
          2.325089827,
          48.80442094
        ]
      },
      "properties": {
        "name": "Avenue Aristide Briand D920 / Promenade de la Vanne",
        "context": "Bagneux, Hauts-de-Seine",
        "citycode": "92007",
        "depcode": "92"
      }
    },
    {
      "type": "Feature",
      "geometry": {
        "type": "Point",
        "coordinates": [
          2.325609382,
          48.805768037
        ]
      },
      "properties": {
        "name": "Avenue Aristide Briand D920 / Rue Berthollet",
        "context": "Bagneux, Hauts-de-Seine",
        "citycode": "92007",
        "depcode": "92"
      }
    },
    {
      "type": "Feature",
      "geometry": {
        "type": "Point",
        "coordinates": [
          2.323903564,
          48.801771043
        ]
      },
      "properties": {
        "name": "Avenue Aristide Briand D920 / Rue de Verdun",
        "context": "Bagneux, Hauts-de-Seine",
        "citycode": "92007",
        "depcode": "92"
      }
    },
    {
      "type": "Feature",
      "geometry": {
        "type": "Point",
        "coordinates": [
          2.319851424,
          48.791211638
        ]
      },
      "properties": {
        "name": "Avenue Aristide Briand D920 / Villa des Longchamps",
        "context": "Bagneux, Hauts-de-Seine",
        "citycode": "92007",
        "depcode": "92"
      }
    },
    {
      "type": "Feature",
      "geometry": {
        "type": "Point",
        "coordinates": [
          2.321875673,
          48.796621595
        ]
      },
      "properties": {
        "name": "Avenue Aristide Briand D920 / Voie Pompiers",
        "context": "Bagneux, Hauts-de-Seine",
        "citycode": "92007",
        "depcode": "92"
      }
    },
    {
      "type": "Feature",
      "geometry": {
        "type": "Point",
        "coordinates": [
          2.306929028,
          48.802133083
        ]
      },
      "properties": {
        "name": "Avenue de Bagneux / Avenue des Maraîchers",
        "context": "Bagneux, Hauts-de-Seine",
        "citycode": "92007",
        "depcode": "92"
      }
    },
    {
      "type": "Feature",
      "geometry": {
        "type": "Point",
        "coordinates": [
          2.30496128,
          48.801387337
        ]
      },
      "properties": {
        "name": "Avenue de Fontenay / Avenue de Bagneux",
        "context": "Bagneux, Hauts-de-Seine",
        "citycode": "92007",
        "depcode": "92"
      }
    },
    {
      "type": "Feature",
      "geometry": {
        "type": "Point",
        "coordinates": [
          2.303475964,
          48.804543079
        ]
      },
      "properties": {
        "name": "Avenue de Fontenay / Avenue de l'Aulnaie",
        "context": "Bagneux, Hauts-de-Seine",
        "citycode": "92007",
        "depcode": "92"
      }
    },
    {
      "type": "Feature",
      "geometry": {
        "type": "Point",
        "coordinates": [
          2.303643327,
          48.805257943
        ]
      },
      "properties": {
        "name": "Avenue de Fontenay / Avenue de la Frenaie",
        "context": "Bagneux, Hauts-de-Seine",
        "citycode": "92007",
        "depcode": "92"
      }
    },
    {
      "type": "Feature",
      "geometry": {
        "type": "Point",
        "coordinates": [
          2.304356591,
          48.806529608
        ]
      },
      "properties": {
        "name": "Avenue de Fontenay / Avenue des Aulnes",
        "context": "Bagneux, Hauts-de-Seine",
        "citycode": "92007",
        "depcode": "92"
      }
    },
    {
      "type": "Feature",
      "geometry": {
        "type": "Point",
        "coordinates": [
          2.305953401,
          48.808257041
        ]
      },
      "properties": {
        "name": "Avenue de Fontenay / Avenue des Bouleaux Fastigiés",
        "context": "Bagneux, Hauts-de-Seine",
        "citycode": "92007",
        "depcode": "92"
      }
    },
    {
      "type": "Feature",
      "geometry": {
        "type": "Point",
        "coordinates": [
          2.307541195,
          48.809918659
        ]
      },
      "properties": {
        "name": "Avenue de Fontenay / Avenue des Copalmes",
        "context": "Bagneux, Hauts-de-Seine",
        "citycode": "92007",
        "depcode": "92"
      }
    },
    {
      "type": "Feature",
      "geometry": {
        "type": "Point",
        "coordinates": [
          2.303938447,
          48.8059119
        ]
      },
      "properties": {
        "name": "Avenue de Fontenay / Avenue des Erables Planes",
        "context": "Bagneux, Hauts-de-Seine",
        "citycode": "92007",
        "depcode": "92"
      }
    },
    {
      "type": "Feature",
      "geometry": {
        "type": "Point",
        "coordinates": [
          2.30700928,
          48.809368856
        ]
      },
      "properties": {
        "name": "Avenue de Fontenay / Avenue des Frênes Monophylles",
        "context": "Bagneux, Hauts-de-Seine",
        "citycode": "92007",
        "depcode": "92"
      }
    },
    {
      "type": "Feature",
      "geometry": {
        "type": "Point",
        "coordinates": [
          2.306474418,
          48.808824649
        ]
      },
      "properties": {
        "name": "Avenue de Fontenay / Avenue des Marronniers d'Inde",
        "context": "Bagneux, Hauts-de-Seine",
        "citycode": "92007",
        "depcode": "92"
      }
    },
    {
      "type": "Feature",
      "geometry": {
        "type": "Point",
        "coordinates": [
          2.305424136,
          48.807701037
        ]
      },
      "properties": {
        "name": "Avenue de Fontenay / Avenue des Micocouliers",
        "context": "Bagneux, Hauts-de-Seine",
        "citycode": "92007",
        "depcode": "92"
      }
    },
    {
      "type": "Feature",
      "geometry": {
        "type": "Point",
        "coordinates": [
          2.303344565,
          48.803803949
        ]
      },
      "properties": {
        "name": "Avenue de Fontenay / Avenue des Tulipiers de Virginie",
        "context": "Bagneux, Hauts-de-Seine",
        "citycode": "92007",
        "depcode": "92"
      }
    },
    {
      "type": "Feature",
      "geometry": {
        "type": "Point",
        "coordinates": [
          2.304425261,
          48.800446675
        ]
      },
      "properties": {
        "name": "Avenue de Garlande / Rue Rene Cros",
        "context": "Bagneux, Hauts-de-Seine",
        "citycode": "92007",
        "depcode": "92"
      }
    },
    {
      "type": "Feature",
      "geometry": {
        "type": "Point",
        "coordinates": [
          2.301916263,
          48.798882747
        ]
      },
      "properties": {
        "name": "Avenue de Garlande / Villa Garlande",
        "context": "Bagneux, Hauts-de-Seine",
        "citycode": "92007",
        "depcode": "92"
      }
    },
    {
      "type": "Feature",
      "geometry": {
        "type": "Point",
        "coordinates": [
          2.309237964,
          48.802098861
        ]
      },
      "properties": {
        "name": "Avenue de l'Aulnaie / Avenue du Fort",
        "context": "Bagneux, Hauts-de-Seine",
        "citycode": "92007",
        "depcode": "92"
      }
    },
    {
      "type": "Feature",
      "geometry": {
        "type": "Point",
        "coordinates": [
          2.309819894,
          48.802642064
        ]
      },
      "properties": {
        "name": "Avenue de la Frenaie / Avenue du Fort",
        "context": "Bagneux, Hauts-de-Seine",
        "citycode": "92007",
        "depcode": "92"
      }
    },
    {
      "type": "Feature",
      "geometry": {
        "type": "Point",
        "coordinates": [
          2.306424349,
          48.804085695
        ]
      },
      "properties": {
        "name": "Avenue de la Frenaie / Avenue Principale",
        "context": "Bagneux, Hauts-de-Seine",
        "citycode": "92007",
        "depcode": "92"
      }
    },
    {
      "type": "Feature",
      "geometry": {
        "type": "Point",
        "coordinates": [
          2.30272166,
          48.811113345
        ]
      },
      "properties": {
        "name": "Avenue de la République / Avenue Marx Dormoy D62",
        "context": "Bagneux, Hauts-de-Seine",
        "citycode": "92007",
        "depcode": "92"
      }
    },
    {
      "type": "Feature",
      "geometry": {
        "type": "Point",
        "coordinates": [
          2.30122971,
          48.809537675
        ]
      },
      "properties": {
        "name": "Avenue de la République D63 / Tram T6",
        "context": "Bagneux, Hauts-de-Seine",
        "citycode": "92007",
        "depcode": "92"
      }
    },
    {
      "type": "Feature",
      "geometry": {
        "type": "Point",
        "coordinates": [
          2.314774301,
          48.809949488
        ]
      },
      "properties": {
        "name": "Avenue de Montrouge / Avenue des Tilleuls de Hollande",
        "context": "Bagneux, Hauts-de-Seine",
        "citycode": "92007",
        "depcode": "92"
      }
    },
    {
      "type": "Feature",
      "geometry": {
        "type": "Point",
        "coordinates": [
          2.310025435,
          48.785083694
        ]
      },
      "properties": {
        "name": "Avenue de Montrouge D77 / Rue de Fontenay D74",
        "context": "Bagneux, Hauts-de-Seine",
        "citycode": "92007",
        "depcode": "92"
      }
    },
    {
      "type": "Feature",
      "geometry": {
        "type": "Point",
        "coordinates": [
          2.318723747,
          48.804543053
        ]
      },
      "properties": {
        "name": "Avenue de Stalingrad / Allée des Martyrs Châteaubriant",
        "context": "Bagneux, Hauts-de-Seine",
        "citycode": "92007",
        "depcode": "92"
      }
    },
    {
      "type": "Feature",
      "geometry": {
        "type": "Point",
        "coordinates": [
          2.317891741,
          48.808400651
        ]
      },
      "properties": {
        "name": "Avenue de Stalingrad / Rue du Colonel Fabien",
        "context": "Bagneux, Hauts-de-Seine",
        "citycode": "92007",
        "depcode": "92"
      }
    },
    {
      "type": "Feature",
      "geometry": {
        "type": "Point",
        "coordinates": [
          2.318441501,
          48.806034335
        ]
      },
      "properties": {
        "name": "Avenue de Stalingrad / Rue Jean Marin Naudin",
        "context": "Bagneux, Hauts-de-Seine",
        "citycode": "92007",
        "depcode": "92"
      }
    },
    {
      "type": "Feature",
      "geometry": {
        "type": "Point",
        "coordinates": [
          2.310897845,
          48.803723561
        ]
      },
      "properties": {
        "name": "Avenue des Aulnes / Avenue du Fort",
        "context": "Bagneux, Hauts-de-Seine",
        "citycode": "92007",
        "depcode": "92"
      }
    },
    {
      "type": "Feature",
      "geometry": {
        "type": "Point",
        "coordinates": [
          2.307530265,
          48.805171032
        ]
      },
      "properties": {
        "name": "Avenue des Aulnes / Avenue Principale",
        "context": "Bagneux, Hauts-de-Seine",
        "citycode": "92007",
        "depcode": "92"
      }
    },
    {
      "type": "Feature",
      "geometry": {
        "type": "Point",
        "coordinates": [
          2.310938279,
          48.80613058
        ]
      },
      "properties": {
        "name": "Avenue des Bouleaux Fastigiés / Avenue des Tilleuls de Hollande",
        "context": "Bagneux, Hauts-de-Seine",
        "citycode": "92007",
        "depcode": "92"
      }
    },
    {
      "type": "Feature",
      "geometry": {
        "type": "Point",
        "coordinates": [
          2.312593569,
          48.805431572
        ]
      },
      "properties": {
        "name": "Avenue des Bouleaux Fastigiés / Avenue du Fort",
        "context": "Bagneux, Hauts-de-Seine",
        "citycode": "92007",
        "depcode": "92"
      }
    },
    {
      "type": "Feature",
      "geometry": {
        "type": "Point",
        "coordinates": [
          2.309220908,
          48.806857416
        ]
      },
      "properties": {
        "name": "Avenue des Bouleaux Fastigiés / Avenue Principale",
        "context": "Bagneux, Hauts-de-Seine",
        "citycode": "92007",
        "depcode": "92"
      }
    },
    {
      "type": "Feature",
      "geometry": {
        "type": "Point",
        "coordinates": [
          2.311753866,
          48.808149019
        ]
      },
      "properties": {
        "name": "Avenue des Copalmes / Avenue des Noisetiers de Byzance",
        "context": "Bagneux, Hauts-de-Seine",
        "citycode": "92007",
        "depcode": "92"
      }
    },
    {
      "type": "Feature",
      "geometry": {
        "type": "Point",
        "coordinates": [
          2.312587688,
          48.807769542
        ]
      },
      "properties": {
        "name": "Avenue des Copalmes / Avenue des Tilleuls de Hollande",
        "context": "Bagneux, Hauts-de-Seine",
        "citycode": "92007",
        "depcode": "92"
      }
    },
    {
      "type": "Feature",
      "geometry": {
        "type": "Point",
        "coordinates": [
          2.31087821,
          48.80850726
        ]
      },
      "properties": {
        "name": "Avenue des Copalmes / Avenue Principale",
        "context": "Bagneux, Hauts-de-Seine",
        "citycode": "92007",
        "depcode": "92"
      }
    },
    {
      "type": "Feature",
      "geometry": {
        "type": "Point",
        "coordinates": [
          2.304885642,
          48.807119515
        ]
      },
      "properties": {
        "name": "Avenue des Érables Champêtres / Avenue de Fontenay",
        "context": "Bagneux, Hauts-de-Seine",
        "citycode": "92007",
        "depcode": "92"
      }
    },
    {
      "type": "Feature",
      "geometry": {
        "type": "Point",
        "coordinates": [
          2.306400864,
          48.806472068
        ]
      },
      "properties": {
        "name": "Avenue des Érables Champêtres / Avenue des Noyers Noirs",
        "context": "Bagneux, Hauts-de-Seine",
        "citycode": "92007",
        "depcode": "92"
      }
    },
    {
      "type": "Feature",
      "geometry": {
        "type": "Point",
        "coordinates": [
          2.30556907,
          48.806828475
        ]
      },
      "properties": {
        "name": "Avenue des Érables Champêtres / Avenue des Ormes de Pumila",
        "context": "Bagneux, Hauts-de-Seine",
        "citycode": "92007",
        "depcode": "92"
      }
    },
    {
      "type": "Feature",
      "geometry": {
        "type": "Point",
        "coordinates": [
          2.307216857,
          48.806116161
        ]
      },
      "properties": {
        "name": "Avenue des Érables Champêtres / Avenue des Sophoras",
        "context": "Bagneux, Hauts-de-Seine",
        "citycode": "92007",
        "depcode": "92"
      }
    },
    {
      "type": "Feature",
      "geometry": {
        "type": "Point",
        "coordinates": [
          2.311453286,
          48.804287417
        ]
      },
      "properties": {
        "name": "Avenue des Érables Champêtres / Avenue du Fort",
        "context": "Bagneux, Hauts-de-Seine",
        "citycode": "92007",
        "depcode": "92"
      }
    },
    {
      "type": "Feature",
      "geometry": {
        "type": "Point",
        "coordinates": [
          2.308100202,
          48.805738788
        ]
      },
      "properties": {
        "name": "Avenue des Érables Champêtres / Avenue Principale",
        "context": "Bagneux, Hauts-de-Seine",
        "citycode": "92007",
        "depcode": "92"
      }
    },
    {
      "type": "Feature",
      "geometry": {
        "type": "Point",
        "coordinates": [
          2.310342945,
          48.80318629
        ]
      },
      "properties": {
        "name": "Avenue des Erables Planes / Avenue du Fort",
        "context": "Bagneux, Hauts-de-Seine",
        "citycode": "92007",
        "depcode": "92"
      }
    },
    {
      "type": "Feature",
      "geometry": {
        "type": "Point",
        "coordinates": [
          2.306972694,
          48.804623201
        ]
      },
      "properties": {
        "name": "Avenue des Erables Planes / Avenue Principale",
        "context": "Bagneux, Hauts-de-Seine",
        "citycode": "92007",
        "depcode": "92"
      }
    },
    {
      "type": "Feature",
      "geometry": {
        "type": "Point",
        "coordinates": [
          2.308634993,
          48.810415208
        ]
      },
      "properties": {
        "name": "Avenue des Érables Pourpres / Avenue de Montrouge",
        "context": "Bagneux, Hauts-de-Seine",
        "citycode": "92007",
        "depcode": "92"
      }
    },
    {
      "type": "Feature",
      "geometry": {
        "type": "Point",
        "coordinates": [
          2.312306187,
          48.808695732
        ]
      },
      "properties": {
        "name": "Avenue des Érables Pourpres / Avenue des Noisetiers de Byzance",
        "context": "Bagneux, Hauts-de-Seine",
        "citycode": "92007",
        "depcode": "92"
      }
    },
    {
      "type": "Feature",
      "geometry": {
        "type": "Point",
        "coordinates": [
          2.313984967,
          48.80798722
        ]
      },
      "properties": {
        "name": "Avenue des Érables Pourpres / Avenue des Sycomores",
        "context": "Bagneux, Hauts-de-Seine",
        "citycode": "92007",
        "depcode": "92"
      }
    },
    {
      "type": "Feature",
      "geometry": {
        "type": "Point",
        "coordinates": [
          2.313151456,
          48.808332161
        ]
      },
      "properties": {
        "name": "Avenue des Érables Pourpres / Avenue des Tilleuls de Hollande",
        "context": "Bagneux, Hauts-de-Seine",
        "citycode": "92007",
        "depcode": "92"
      }
    },
    {
      "type": "Feature",
      "geometry": {
        "type": "Point",
        "coordinates": [
          2.314822435,
          48.807630172
        ]
      },
      "properties": {
        "name": "Avenue des Érables Pourpres / Avenue du Fort",
        "context": "Bagneux, Hauts-de-Seine",
        "citycode": "92007",
        "depcode": "92"
      }
    },
    {
      "type": "Feature",
      "geometry": {
        "type": "Point",
        "coordinates": [
          2.311462181,
          48.809058833
        ]
      },
      "properties": {
        "name": "Avenue des Érables Pourpres / Avenue Principale",
        "context": "Bagneux, Hauts-de-Seine",
        "citycode": "92007",
        "depcode": "92"
      }
    },
    {
      "type": "Feature",
      "geometry": {
        "type": "Point",
        "coordinates": [
          2.306364871,
          48.801738912
        ]
      },
      "properties": {
        "name": "Avenue des Féviers d'Amérique / Avenue de Bagneux",
        "context": "Bagneux, Hauts-de-Seine",
        "citycode": "92007",
        "depcode": "92"
      }
    },
    {
      "type": "Feature",
      "geometry": {
        "type": "Point",
        "coordinates": [
          2.303942822,
          48.802726296
        ]
      },
      "properties": {
        "name": "Avenue des Féviers d'Amérique / Avenue de Fontenay",
        "context": "Bagneux, Hauts-de-Seine",
        "citycode": "92007",
        "depcode": "92"
      }
    },
    {
      "type": "Feature",
      "geometry": {
        "type": "Point",
        "coordinates": [
          2.319503882,
          48.790472961
        ]
      },
      "properties": {
        "name": "Avenue des Fleurs / Avenue Aristide Briand D920",
        "context": "Bagneux, Hauts-de-Seine",
        "citycode": "92007",
        "depcode": "92"
      }
    },
    {
      "type": "Feature",
      "geometry": {
        "type": "Point",
        "coordinates": [
          2.318571187,
          48.790650619
        ]
      },
      "properties": {
        "name": "Avenue des Fleurs / Rue Abraham Lincoln",
        "context": "Bagneux, Hauts-de-Seine",
        "citycode": "92007",
        "depcode": "92"
      }
    },
    {
      "type": "Feature",
      "geometry": {
        "type": "Point",
        "coordinates": [
          2.31203477,
          48.807228637
        ]
      },
      "properties": {
        "name": "Avenue des Frênes Monophylles / Avenue des Tilleuls de Hollande",
        "context": "Bagneux, Hauts-de-Seine",
        "citycode": "92007",
        "depcode": "92"
      }
    },
    {
      "type": "Feature",
      "geometry": {
        "type": "Point",
        "coordinates": [
          2.310312271,
          48.807948005
        ]
      },
      "properties": {
        "name": "Avenue des Frênes Monophylles / Avenue Principale",
        "context": "Bagneux, Hauts-de-Seine",
        "citycode": "92007",
        "depcode": "92"
      }
    },
    {
      "type": "Feature",
      "geometry": {
        "type": "Point",
        "coordinates": [
          2.311481513,
          48.806691148
        ]
      },
      "properties": {
        "name": "Avenue des Marronniers d'Inde / Avenue des Tilleuls de Hollande",
        "context": "Bagneux, Hauts-de-Seine",
        "citycode": "92007",
        "depcode": "92"
      }
    },
    {
      "type": "Feature",
      "geometry": {
        "type": "Point",
        "coordinates": [
          2.313162543,
          48.805972461
        ]
      },
      "properties": {
        "name": "Avenue des Marronniers d'Inde / Avenue du Fort",
        "context": "Bagneux, Hauts-de-Seine",
        "citycode": "92007",
        "depcode": "92"
      }
    },
    {
      "type": "Feature",
      "geometry": {
        "type": "Point",
        "coordinates": [
          2.309769107,
          48.807405405
        ]
      },
      "properties": {
        "name": "Avenue des Marronniers d'Inde / Avenue Principale",
        "context": "Bagneux, Hauts-de-Seine",
        "citycode": "92007",
        "depcode": "92"
      }
    },
    {
      "type": "Feature",
      "geometry": {
        "type": "Point",
        "coordinates": [
          2.310391753,
          48.805587284
        ]
      },
      "properties": {
        "name": "Avenue des Micocouliers / Avenue des Tilleuls de Hollande",
        "context": "Bagneux, Hauts-de-Seine",
        "citycode": "92007",
        "depcode": "92"
      }
    },
    {
      "type": "Feature",
      "geometry": {
        "type": "Point",
        "coordinates": [
          2.31204282,
          48.804864937
        ]
      },
      "properties": {
        "name": "Avenue des Micocouliers / Avenue du Fort",
        "context": "Bagneux, Hauts-de-Seine",
        "citycode": "92007",
        "depcode": "92"
      }
    },
    {
      "type": "Feature",
      "geometry": {
        "type": "Point",
        "coordinates": [
          2.308675899,
          48.806312625
        ]
      },
      "properties": {
        "name": "Avenue des Micocouliers / Avenue Principale",
        "context": "Bagneux, Hauts-de-Seine",
        "citycode": "92007",
        "depcode": "92"
      }
    },
    {
      "type": "Feature",
      "geometry": {
        "type": "Point",
        "coordinates": [
          2.30496853,
          48.80138769
        ]
      },
      "properties": {
        "name": "Avenue des Noisetiers de Byzance / Avenue de Bagneux",
        "context": "Bagneux, Hauts-de-Seine",
        "citycode": "92007",
        "depcode": "92"
      }
    },
    {
      "type": "Feature",
      "geometry": {
        "type": "Point",
        "coordinates": [
          2.304963225,
          48.80141372
        ]
      },
      "properties": {
        "name": "Avenue des Noisetiers de Byzance / Avenue de Fontenay",
        "context": "Bagneux, Hauts-de-Seine",
        "citycode": "92007",
        "depcode": "92"
      }
    },
    {
      "type": "Feature",
      "geometry": {
        "type": "Point",
        "coordinates": [
          2.306753813,
          48.803172379
        ]
      },
      "properties": {
        "name": "Avenue des Noisetiers de Byzance / Avenue de l'Aulnaie",
        "context": "Bagneux, Hauts-de-Seine",
        "citycode": "92007",
        "depcode": "92"
      }
    },
    {
      "type": "Feature",
      "geometry": {
        "type": "Point",
        "coordinates": [
          2.30729839,
          48.803714109
        ]
      },
      "properties": {
        "name": "Avenue des Noisetiers de Byzance / Avenue de la Frenaie",
        "context": "Bagneux, Hauts-de-Seine",
        "citycode": "92007",
        "depcode": "92"
      }
    },
    {
      "type": "Feature",
      "geometry": {
        "type": "Point",
        "coordinates": [
          2.308385587,
          48.804796377
        ]
      },
      "properties": {
        "name": "Avenue des Noisetiers de Byzance / Avenue des Aulnes",
        "context": "Bagneux, Hauts-de-Seine",
        "citycode": "92007",
        "depcode": "92"
      }
    },
    {
      "type": "Feature",
      "geometry": {
        "type": "Point",
        "coordinates": [
          2.310084246,
          48.806487231
        ]
      },
      "properties": {
        "name": "Avenue des Noisetiers de Byzance / Avenue des Bouleaux Fastigiés",
        "context": "Bagneux, Hauts-de-Seine",
        "citycode": "92007",
        "depcode": "92"
      }
    },
    {
      "type": "Feature",
      "geometry": {
        "type": "Point",
        "coordinates": [
          2.311734425,
          48.808130408
        ]
      },
      "properties": {
        "name": "Avenue des Noisetiers de Byzance / Avenue des Copalmes",
        "context": "Bagneux, Hauts-de-Seine",
        "citycode": "92007",
        "depcode": "92"
      }
    },
    {
      "type": "Feature",
      "geometry": {
        "type": "Point",
        "coordinates": [
          2.308962876,
          48.805370988
        ]
      },
      "properties": {
        "name": "Avenue des Noisetiers de Byzance / Avenue des Érables Champêtres",
        "context": "Bagneux, Hauts-de-Seine",
        "citycode": "92007",
        "depcode": "92"
      }
    },
    {
      "type": "Feature",
      "geometry": {
        "type": "Point",
        "coordinates": [
          2.307839904,
          48.804253102
        ]
      },
      "properties": {
        "name": "Avenue des Noisetiers de Byzance / Avenue des Erables Planes",
        "context": "Bagneux, Hauts-de-Seine",
        "citycode": "92007",
        "depcode": "92"
      }
    },
    {
      "type": "Feature",
      "geometry": {
        "type": "Point",
        "coordinates": [
          2.305643002,
          48.80206629
        ]
      },
      "properties": {
        "name": "Avenue des Noisetiers de Byzance / Avenue des Féviers d'Amérique",
        "context": "Bagneux, Hauts-de-Seine",
        "citycode": "92007",
        "depcode": "92"
      }
    },
    {
      "type": "Feature",
      "geometry": {
        "type": "Point",
        "coordinates": [
          2.311191165,
          48.807594123
        ]
      },
      "properties": {
        "name": "Avenue des Noisetiers de Byzance / Avenue des Frênes Monophylles",
        "context": "Bagneux, Hauts-de-Seine",
        "citycode": "92007",
        "depcode": "92"
      }
    },
    {
      "type": "Feature",
      "geometry": {
        "type": "Point",
        "coordinates": [
          2.310633426,
          48.807034038
        ]
      },
      "properties": {
        "name": "Avenue des Noisetiers de Byzance / Avenue des Marronniers d'Inde",
        "context": "Bagneux, Hauts-de-Seine",
        "citycode": "92007",
        "depcode": "92"
      }
    },
    {
      "type": "Feature",
      "geometry": {
        "type": "Point",
        "coordinates": [
          2.309533415,
          48.805938912
        ]
      },
      "properties": {
        "name": "Avenue des Noisetiers de Byzance / Avenue des Micocouliers",
        "context": "Bagneux, Hauts-de-Seine",
        "citycode": "92007",
        "depcode": "92"
      }
    },
    {
      "type": "Feature",
      "geometry": {
        "type": "Point",
        "coordinates": [
          2.306184276,
          48.802605028
        ]
      },
      "properties": {
        "name": "Avenue des Noisetiers de Byzance / Avenue des Tulipiers de Virginie",
        "context": "Bagneux, Hauts-de-Seine",
        "citycode": "92007",
        "depcode": "92"
      }
    },
    {
      "type": "Feature",
      "geometry": {
        "type": "Point",
        "coordinates": [
          2.303372659,
          48.803489977
        ]
      },
      "properties": {
        "name": "Avenue des Noyers Noirs / Avenue de Fontenay",
        "context": "Bagneux, Hauts-de-Seine",
        "citycode": "92007",
        "depcode": "92"
      }
    },
    {
      "type": "Feature",
      "geometry": {
        "type": "Point",
        "coordinates": [
          2.304180187,
          48.804258078
        ]
      },
      "properties": {
        "name": "Avenue des Noyers Noirs / Avenue de l'Aulnaie",
        "context": "Bagneux, Hauts-de-Seine",
        "citycode": "92007",
        "depcode": "92"
      }
    },
    {
      "type": "Feature",
      "geometry": {
        "type": "Point",
        "coordinates": [
          2.304729712,
          48.804805999
        ]
      },
      "properties": {
        "name": "Avenue des Noyers Noirs / Avenue de la Frenaie",
        "context": "Bagneux, Hauts-de-Seine",
        "citycode": "92007",
        "depcode": "92"
      }
    },
    {
      "type": "Feature",
      "geometry": {
        "type": "Point",
        "coordinates": [
          2.310222015,
          48.810299241
        ]
      },
      "properties": {
        "name": "Avenue des Noyers Noirs / Avenue de Montrouge",
        "context": "Bagneux, Hauts-de-Seine",
        "citycode": "92007",
        "depcode": "92"
      }
    },
    {
      "type": "Feature",
      "geometry": {
        "type": "Point",
        "coordinates": [
          2.305828849,
          48.805901848
        ]
      },
      "properties": {
        "name": "Avenue des Noyers Noirs / Avenue des Aulnes",
        "context": "Bagneux, Hauts-de-Seine",
        "citycode": "92007",
        "depcode": "92"
      }
    },
    {
      "type": "Feature",
      "geometry": {
        "type": "Point",
        "coordinates": [
          2.307518486,
          48.807586167
        ]
      },
      "properties": {
        "name": "Avenue des Noyers Noirs / Avenue des Bouleaux Fastigiés",
        "context": "Bagneux, Hauts-de-Seine",
        "citycode": "92007",
        "depcode": "92"
      }
    },
    {
      "type": "Feature",
      "geometry": {
        "type": "Point",
        "coordinates": [
          2.309177161,
          48.809226092
        ]
      },
      "properties": {
        "name": "Avenue des Noyers Noirs / Avenue des Copalmes",
        "context": "Bagneux, Hauts-de-Seine",
        "citycode": "92007",
        "depcode": "92"
      }
    },
    {
      "type": "Feature",
      "geometry": {
        "type": "Point",
        "coordinates": [
          2.305273698,
          48.805348304
        ]
      },
      "properties": {
        "name": "Avenue des Noyers Noirs / Avenue des Erables Planes",
        "context": "Bagneux, Hauts-de-Seine",
        "citycode": "92007",
        "depcode": "92"
      }
    },
    {
      "type": "Feature",
      "geometry": {
        "type": "Point",
        "coordinates": [
          2.309723085,
          48.809783029
        ]
      },
      "properties": {
        "name": "Avenue des Noyers Noirs / Avenue des Érables Pourpres",
        "context": "Bagneux, Hauts-de-Seine",
        "citycode": "92007",
        "depcode": "92"
      }
    },
    {
      "type": "Feature",
      "geometry": {
        "type": "Point",
        "coordinates": [
          2.308614371,
          48.808677908
        ]
      },
      "properties": {
        "name": "Avenue des Noyers Noirs / Avenue des Frênes Monophylles",
        "context": "Bagneux, Hauts-de-Seine",
        "citycode": "92007",
        "depcode": "92"
      }
    },
    {
      "type": "Feature",
      "geometry": {
        "type": "Point",
        "coordinates": [
          2.308071203,
          48.808137101
        ]
      },
      "properties": {
        "name": "Avenue des Noyers Noirs / Avenue des Marronniers d'Inde",
        "context": "Bagneux, Hauts-de-Seine",
        "citycode": "92007",
        "depcode": "92"
      }
    },
    {
      "type": "Feature",
      "geometry": {
        "type": "Point",
        "coordinates": [
          2.306976293,
          48.807045695
        ]
      },
      "properties": {
        "name": "Avenue des Noyers Noirs / Avenue des Micocouliers",
        "context": "Bagneux, Hauts-de-Seine",
        "citycode": "92007",
        "depcode": "92"
      }
    },
    {
      "type": "Feature",
      "geometry": {
        "type": "Point",
        "coordinates": [
          2.303614859,
          48.803694478
        ]
      },
      "properties": {
        "name": "Avenue des Noyers Noirs / Avenue des Tulipiers de Virginie",
        "context": "Bagneux, Hauts-de-Seine",
        "citycode": "92007",
        "depcode": "92"
      }
    },
    {
      "type": "Feature",
      "geometry": {
        "type": "Point",
        "coordinates": [
          2.303563875,
          48.804864563
        ]
      },
      "properties": {
        "name": "Avenue des Ormes de Pumila / Avenue de Fontenay",
        "context": "Bagneux, Hauts-de-Seine",
        "citycode": "92007",
        "depcode": "92"
      }
    },
    {
      "type": "Feature",
      "geometry": {
        "type": "Point",
        "coordinates": [
          2.303904691,
          48.8051567
        ]
      },
      "properties": {
        "name": "Avenue des Ormes de Pumila / Avenue de la Frenaie",
        "context": "Bagneux, Hauts-de-Seine",
        "citycode": "92007",
        "depcode": "92"
      }
    },
    {
      "type": "Feature",
      "geometry": {
        "type": "Point",
        "coordinates": [
          2.309078379,
          48.810369261
        ]
      },
      "properties": {
        "name": "Avenue des Ormes de Pumila / Avenue de Montrouge",
        "context": "Bagneux, Hauts-de-Seine",
        "citycode": "92007",
        "depcode": "92"
      }
    },
    {
      "type": "Feature",
      "geometry": {
        "type": "Point",
        "coordinates": [
          2.304997326,
          48.806254237
        ]
      },
      "properties": {
        "name": "Avenue des Ormes de Pumila / Avenue des Aulnes",
        "context": "Bagneux, Hauts-de-Seine",
        "citycode": "92007",
        "depcode": "92"
      }
    },
    {
      "type": "Feature",
      "geometry": {
        "type": "Point",
        "coordinates": [
          2.30668621,
          48.807950509
        ]
      },
      "properties": {
        "name": "Avenue des Ormes de Pumila / Avenue des Bouleaux Fastigiés",
        "context": "Bagneux, Hauts-de-Seine",
        "citycode": "92007",
        "depcode": "92"
      }
    },
    {
      "type": "Feature",
      "geometry": {
        "type": "Point",
        "coordinates": [
          2.308318643,
          48.809590033
        ]
      },
      "properties": {
        "name": "Avenue des Ormes de Pumila / Avenue des Copalmes",
        "context": "Bagneux, Hauts-de-Seine",
        "citycode": "92007",
        "depcode": "92"
      }
    },
    {
      "type": "Feature",
      "geometry": {
        "type": "Point",
        "coordinates": [
          2.304446707,
          48.805701205
        ]
      },
      "properties": {
        "name": "Avenue des Ormes de Pumila / Avenue des Erables Planes",
        "context": "Bagneux, Hauts-de-Seine",
        "citycode": "92007",
        "depcode": "92"
      }
    },
    {
      "type": "Feature",
      "geometry": {
        "type": "Point",
        "coordinates": [
          2.308867727,
          48.810141043
        ]
      },
      "properties": {
        "name": "Avenue des Ormes de Pumila / Avenue des Érables Pourpres",
        "context": "Bagneux, Hauts-de-Seine",
        "citycode": "92007",
        "depcode": "92"
      }
    },
    {
      "type": "Feature",
      "geometry": {
        "type": "Point",
        "coordinates": [
          2.307771701,
          48.809040701
        ]
      },
      "properties": {
        "name": "Avenue des Ormes de Pumila / Avenue des Frênes Monophylles",
        "context": "Bagneux, Hauts-de-Seine",
        "citycode": "92007",
        "depcode": "92"
      }
    },
    {
      "type": "Feature",
      "geometry": {
        "type": "Point",
        "coordinates": [
          2.307232098,
          48.808498701
        ]
      },
      "properties": {
        "name": "Avenue des Ormes de Pumila / Avenue des Marronniers d'Inde",
        "context": "Bagneux, Hauts-de-Seine",
        "citycode": "92007",
        "depcode": "92"
      }
    },
    {
      "type": "Feature",
      "geometry": {
        "type": "Point",
        "coordinates": [
          2.306141413,
          48.807403326
        ]
      },
      "properties": {
        "name": "Avenue des Ormes de Pumila / Avenue des Micocouliers",
        "context": "Bagneux, Hauts-de-Seine",
        "citycode": "92007",
        "depcode": "92"
      }
    },
    {
      "type": "Feature",
      "geometry": {
        "type": "Point",
        "coordinates": [
          2.31552342,
          48.809706352
        ]
      },
      "properties": {
        "name": "Avenue des Peupliers / Avenue de Montrouge",
        "context": "Bagneux, Hauts-de-Seine",
        "citycode": "92007",
        "depcode": "92"
      }
    },
    {
      "type": "Feature",
      "geometry": {
        "type": "Point",
        "coordinates": [
          2.31563376,
          48.809622701
        ]
      },
      "properties": {
        "name": "Avenue des Peupliers / Avenue des Sycomores",
        "context": "Bagneux, Hauts-de-Seine",
        "citycode": "92007",
        "depcode": "92"
      }
    },
    {
      "type": "Feature",
      "geometry": {
        "type": "Point",
        "coordinates": [
          2.314808967,
          48.809954529
        ]
      },
      "properties": {
        "name": "Avenue des Peupliers / Avenue des Tilleuls de Hollande",
        "context": "Bagneux, Hauts-de-Seine",
        "citycode": "92007",
        "depcode": "92"
      }
    },
    {
      "type": "Feature",
      "geometry": {
        "type": "Point",
        "coordinates": [
          2.316393534,
          48.80933241
        ]
      },
      "properties": {
        "name": "Avenue des Peupliers / Avenue du Fort",
        "context": "Bagneux, Hauts-de-Seine",
        "citycode": "92007",
        "depcode": "92"
      }
    },
    {
      "type": "Feature",
      "geometry": {
        "type": "Point",
        "coordinates": [
          2.310646095,
          48.810236626
        ]
      },
      "properties": {
        "name": "Avenue des Poiriers / Avenue de Montrouge",
        "context": "Bagneux, Hauts-de-Seine",
        "citycode": "92007",
        "depcode": "92"
      }
    },
    {
      "type": "Feature",
      "geometry": {
        "type": "Point",
        "coordinates": [
          2.312883667,
          48.80925361
        ]
      },
      "properties": {
        "name": "Avenue des Poiriers / Avenue des Noisetiers de Byzance",
        "context": "Bagneux, Hauts-de-Seine",
        "citycode": "92007",
        "depcode": "92"
      }
    },
    {
      "type": "Feature",
      "geometry": {
        "type": "Point",
        "coordinates": [
          2.313719845,
          48.80888579
        ]
      },
      "properties": {
        "name": "Avenue des Poiriers / Avenue des Tilleuls de Hollande",
        "context": "Bagneux, Hauts-de-Seine",
        "citycode": "92007",
        "depcode": "92"
      }
    },
    {
      "type": "Feature",
      "geometry": {
        "type": "Point",
        "coordinates": [
          2.303861962,
          48.802803354
        ]
      },
      "properties": {
        "name": "Avenue des Sophoras / Avenue de Fontenay",
        "context": "Bagneux, Hauts-de-Seine",
        "citycode": "92007",
        "depcode": "92"
      }
    },
    {
      "type": "Feature",
      "geometry": {
        "type": "Point",
        "coordinates": [
          2.304998997,
          48.803912694
        ]
      },
      "properties": {
        "name": "Avenue des Sophoras / Avenue de l'Aulnaie",
        "context": "Bagneux, Hauts-de-Seine",
        "citycode": "92007",
        "depcode": "92"
      }
    },
    {
      "type": "Feature",
      "geometry": {
        "type": "Point",
        "coordinates": [
          2.305547999,
          48.8044582
        ]
      },
      "properties": {
        "name": "Avenue des Sophoras / Avenue de la Frenaie",
        "context": "Bagneux, Hauts-de-Seine",
        "citycode": "92007",
        "depcode": "92"
      }
    },
    {
      "type": "Feature",
      "geometry": {
        "type": "Point",
        "coordinates": [
          2.306644151,
          48.805547235
        ]
      },
      "properties": {
        "name": "Avenue des Sophoras / Avenue des Aulnes",
        "context": "Bagneux, Hauts-de-Seine",
        "citycode": "92007",
        "depcode": "92"
      }
    },
    {
      "type": "Feature",
      "geometry": {
        "type": "Point",
        "coordinates": [
          2.30834839,
          48.807240412
        ]
      },
      "properties": {
        "name": "Avenue des Sophoras / Avenue des Bouleaux Fastigiés",
        "context": "Bagneux, Hauts-de-Seine",
        "citycode": "92007",
        "depcode": "92"
      }
    },
    {
      "type": "Feature",
      "geometry": {
        "type": "Point",
        "coordinates": [
          2.310004924,
          48.808878279
        ]
      },
      "properties": {
        "name": "Avenue des Sophoras / Avenue des Copalmes",
        "context": "Bagneux, Hauts-de-Seine",
        "citycode": "92007",
        "depcode": "92"
      }
    },
    {
      "type": "Feature",
      "geometry": {
        "type": "Point",
        "coordinates": [
          2.306092292,
          48.804998989
        ]
      },
      "properties": {
        "name": "Avenue des Sophoras / Avenue des Erables Planes",
        "context": "Bagneux, Hauts-de-Seine",
        "citycode": "92007",
        "depcode": "92"
      }
    },
    {
      "type": "Feature",
      "geometry": {
        "type": "Point",
        "coordinates": [
          2.310558031,
          48.809435038
        ]
      },
      "properties": {
        "name": "Avenue des Sophoras / Avenue des Érables Pourpres",
        "context": "Bagneux, Hauts-de-Seine",
        "citycode": "92007",
        "depcode": "92"
      }
    },
    {
      "type": "Feature",
      "geometry": {
        "type": "Point",
        "coordinates": [
          2.303876898,
          48.802781797
        ]
      },
      "properties": {
        "name": "Avenue des Sophoras / Avenue des Féviers d'Amérique",
        "context": "Bagneux, Hauts-de-Seine",
        "citycode": "92007",
        "depcode": "92"
      }
    },
    {
      "type": "Feature",
      "geometry": {
        "type": "Point",
        "coordinates": [
          2.309438662,
          48.808323085
        ]
      },
      "properties": {
        "name": "Avenue des Sophoras / Avenue des Frênes Monophylles",
        "context": "Bagneux, Hauts-de-Seine",
        "citycode": "92007",
        "depcode": "92"
      }
    },
    {
      "type": "Feature",
      "geometry": {
        "type": "Point",
        "coordinates": [
          2.308894103,
          48.807782503
        ]
      },
      "properties": {
        "name": "Avenue des Sophoras / Avenue des Marronniers d'Inde",
        "context": "Bagneux, Hauts-de-Seine",
        "citycode": "92007",
        "depcode": "92"
      }
    },
    {
      "type": "Feature",
      "geometry": {
        "type": "Point",
        "coordinates": [
          2.307797488,
          48.806693098
        ]
      },
      "properties": {
        "name": "Avenue des Sophoras / Avenue des Micocouliers",
        "context": "Bagneux, Hauts-de-Seine",
        "citycode": "92007",
        "depcode": "92"
      }
    },
    {
      "type": "Feature",
      "geometry": {
        "type": "Point",
        "coordinates": [
          2.311121737,
          48.809996001
        ]
      },
      "properties": {
        "name": "Avenue des Sophoras / Avenue des Poiriers",
        "context": "Bagneux, Hauts-de-Seine",
        "citycode": "92007",
        "depcode": "92"
      }
    },
    {
      "type": "Feature",
      "geometry": {
        "type": "Point",
        "coordinates": [
          2.304430166,
          48.803347377
        ]
      },
      "properties": {
        "name": "Avenue des Sophoras / Avenue des Tulipiers de Virginie",
        "context": "Bagneux, Hauts-de-Seine",
        "citycode": "92007",
        "depcode": "92"
      }
    },
    {
      "type": "Feature",
      "geometry": {
        "type": "Point",
        "coordinates": [
          2.308414484,
          48.802470495
        ]
      },
      "properties": {
        "name": "Avenue des Sycomores / Avenue de l'Aulnaie",
        "context": "Bagneux, Hauts-de-Seine",
        "citycode": "92007",
        "depcode": "92"
      }
    },
    {
      "type": "Feature",
      "geometry": {
        "type": "Point",
        "coordinates": [
          2.308957611,
          48.803008811
        ]
      },
      "properties": {
        "name": "Avenue des Sycomores / Avenue de la Frenaie",
        "context": "Bagneux, Hauts-de-Seine",
        "citycode": "92007",
        "depcode": "92"
      }
    },
    {
      "type": "Feature",
      "geometry": {
        "type": "Point",
        "coordinates": [
          2.310039508,
          48.804081083
        ]
      },
      "properties": {
        "name": "Avenue des Sycomores / Avenue des Aulnes",
        "context": "Bagneux, Hauts-de-Seine",
        "citycode": "92007",
        "depcode": "92"
      }
    },
    {
      "type": "Feature",
      "geometry": {
        "type": "Point",
        "coordinates": [
          2.311749418,
          48.805780602
        ]
      },
      "properties": {
        "name": "Avenue des Sycomores / Avenue des Bouleaux Fastigiés",
        "context": "Bagneux, Hauts-de-Seine",
        "citycode": "92007",
        "depcode": "92"
      }
    },
    {
      "type": "Feature",
      "geometry": {
        "type": "Point",
        "coordinates": [
          2.313401161,
          48.807417642
        ]
      },
      "properties": {
        "name": "Avenue des Sycomores / Avenue des Copalmes",
        "context": "Bagneux, Hauts-de-Seine",
        "citycode": "92007",
        "depcode": "92"
      }
    },
    {
      "type": "Feature",
      "geometry": {
        "type": "Point",
        "coordinates": [
          2.310616023,
          48.804652427
        ]
      },
      "properties": {
        "name": "Avenue des Sycomores / Avenue des Érables Champêtres",
        "context": "Bagneux, Hauts-de-Seine",
        "citycode": "92007",
        "depcode": "92"
      }
    },
    {
      "type": "Feature",
      "geometry": {
        "type": "Point",
        "coordinates": [
          2.309498839,
          48.803545242
        ]
      },
      "properties": {
        "name": "Avenue des Sycomores / Avenue des Erables Planes",
        "context": "Bagneux, Hauts-de-Seine",
        "citycode": "92007",
        "depcode": "92"
      }
    },
    {
      "type": "Feature",
      "geometry": {
        "type": "Point",
        "coordinates": [
          2.312852347,
          48.806875417
        ]
      },
      "properties": {
        "name": "Avenue des Sycomores / Avenue des Frênes Monophylles",
        "context": "Bagneux, Hauts-de-Seine",
        "citycode": "92007",
        "depcode": "92"
      }
    },
    {
      "type": "Feature",
      "geometry": {
        "type": "Point",
        "coordinates": [
          2.307472786,
          48.801555866
        ]
      },
      "properties": {
        "name": "Avenue des Sycomores / Avenue des Maraîchers",
        "context": "Bagneux, Hauts-de-Seine",
        "citycode": "92007",
        "depcode": "92"
      }
    },
    {
      "type": "Feature",
      "geometry": {
        "type": "Point",
        "coordinates": [
          2.312303153,
          48.806341142
        ]
      },
      "properties": {
        "name": "Avenue des Sycomores / Avenue des Marronniers d'Inde",
        "context": "Bagneux, Hauts-de-Seine",
        "citycode": "92007",
        "depcode": "92"
      }
    },
    {
      "type": "Feature",
      "geometry": {
        "type": "Point",
        "coordinates": [
          2.311195309,
          48.805226719
        ]
      },
      "properties": {
        "name": "Avenue des Sycomores / Avenue des Micocouliers",
        "context": "Bagneux, Hauts-de-Seine",
        "citycode": "92007",
        "depcode": "92"
      }
    },
    {
      "type": "Feature",
      "geometry": {
        "type": "Point",
        "coordinates": [
          2.314533211,
          48.8085341
        ]
      },
      "properties": {
        "name": "Avenue des Sycomores / Avenue des Poiriers",
        "context": "Bagneux, Hauts-de-Seine",
        "citycode": "92007",
        "depcode": "92"
      }
    },
    {
      "type": "Feature",
      "geometry": {
        "type": "Point",
        "coordinates": [
          2.307843418,
          48.801904425
        ]
      },
      "properties": {
        "name": "Avenue des Sycomores / Avenue des Tulipiers de Virginie",
        "context": "Bagneux, Hauts-de-Seine",
        "citycode": "92007",
        "depcode": "92"
      }
    },
    {
      "type": "Feature",
      "geometry": {
        "type": "Point",
        "coordinates": [
          2.31313172,
          48.809939408
        ]
      },
      "properties": {
        "name": "Avenue des Tilleuls Argentés / Avenue de Montrouge",
        "context": "Bagneux, Hauts-de-Seine",
        "citycode": "92007",
        "depcode": "92"
      }
    },
    {
      "type": "Feature",
      "geometry": {
        "type": "Point",
        "coordinates": [
          2.31342139,
          48.809788899
        ]
      },
      "properties": {
        "name": "Avenue des Tilleuls Argentés / Avenue des Noisetiers de Byzance",
        "context": "Bagneux, Hauts-de-Seine",
        "citycode": "92007",
        "depcode": "92"
      }
    },
    {
      "type": "Feature",
      "geometry": {
        "type": "Point",
        "coordinates": [
          2.315088024,
          48.80908384
        ]
      },
      "properties": {
        "name": "Avenue des Tilleuls Argentés / Avenue des Sycomores",
        "context": "Bagneux, Hauts-de-Seine",
        "citycode": "92007",
        "depcode": "92"
      }
    },
    {
      "type": "Feature",
      "geometry": {
        "type": "Point",
        "coordinates": [
          2.314272226,
          48.809432807
        ]
      },
      "properties": {
        "name": "Avenue des Tilleuls Argentés / Avenue des Tilleuls de Hollande",
        "context": "Bagneux, Hauts-de-Seine",
        "citycode": "92007",
        "depcode": "92"
      }
    },
    {
      "type": "Feature",
      "geometry": {
        "type": "Point",
        "coordinates": [
          2.315932091,
          48.808722769
        ]
      },
      "properties": {
        "name": "Avenue des Tilleuls Argentés / Avenue du Fort",
        "context": "Bagneux, Hauts-de-Seine",
        "citycode": "92007",
        "depcode": "92"
      }
    },
    {
      "type": "Feature",
      "geometry": {
        "type": "Point",
        "coordinates": [
          2.3069303,
          48.8021572
        ]
      },
      "properties": {
        "name": "Avenue des Tilleuls de Hollande / Avenue de Bagneux",
        "context": "Bagneux, Hauts-de-Seine",
        "citycode": "92007",
        "depcode": "92"
      }
    },
    {
      "type": "Feature",
      "geometry": {
        "type": "Point",
        "coordinates": [
          2.30759574,
          48.802817084
        ]
      },
      "properties": {
        "name": "Avenue des Tilleuls de Hollande / Avenue de l'Aulnaie",
        "context": "Bagneux, Hauts-de-Seine",
        "citycode": "92007",
        "depcode": "92"
      }
    },
    {
      "type": "Feature",
      "geometry": {
        "type": "Point",
        "coordinates": [
          2.308140202,
          48.803356312
        ]
      },
      "properties": {
        "name": "Avenue des Tilleuls de Hollande / Avenue de la Frenaie",
        "context": "Bagneux, Hauts-de-Seine",
        "citycode": "92007",
        "depcode": "92"
      }
    },
    {
      "type": "Feature",
      "geometry": {
        "type": "Point",
        "coordinates": [
          2.309226372,
          48.804432764
        ]
      },
      "properties": {
        "name": "Avenue des Tilleuls de Hollande / Avenue des Aulnes",
        "context": "Bagneux, Hauts-de-Seine",
        "citycode": "92007",
        "depcode": "92"
      }
    },
    {
      "type": "Feature",
      "geometry": {
        "type": "Point",
        "coordinates": [
          2.309799788,
          48.805001071
        ]
      },
      "properties": {
        "name": "Avenue des Tilleuls de Hollande / Avenue des Érables Champêtres",
        "context": "Bagneux, Hauts-de-Seine",
        "citycode": "92007",
        "depcode": "92"
      }
    },
    {
      "type": "Feature",
      "geometry": {
        "type": "Point",
        "coordinates": [
          2.308682309,
          48.803893595
        ]
      },
      "properties": {
        "name": "Avenue des Tilleuls de Hollande / Avenue des Erables Planes",
        "context": "Bagneux, Hauts-de-Seine",
        "citycode": "92007",
        "depcode": "92"
      }
    },
    {
      "type": "Feature",
      "geometry": {
        "type": "Point",
        "coordinates": [
          2.306934272,
          48.802157107
        ]
      },
      "properties": {
        "name": "Avenue des Tilleuls de Hollande / Avenue des Maraîchers",
        "context": "Bagneux, Hauts-de-Seine",
        "citycode": "92007",
        "depcode": "92"
      }
    },
    {
      "type": "Feature",
      "geometry": {
        "type": "Point",
        "coordinates": [
          2.310372225,
          48.805568709
        ]
      },
      "properties": {
        "name": "Avenue des Tilleuls de Hollande / Avenue des Micocouliers",
        "context": "Bagneux, Hauts-de-Seine",
        "citycode": "92007",
        "depcode": "92"
      }
    },
    {
      "type": "Feature",
      "geometry": {
        "type": "Point",
        "coordinates": [
          2.307027026,
          48.802253054
        ]
      },
      "properties": {
        "name": "Avenue des Tilleuls de Hollande / Avenue des Tulipiers de Virginie",
        "context": "Bagneux, Hauts-de-Seine",
        "citycode": "92007",
        "depcode": "92"
      }
    },
    {
      "type": "Feature",
      "geometry": {
        "type": "Point",
        "coordinates": [
          2.306969871,
          48.802197862
        ]
      },
      "properties": {
        "name": "Avenue des Tulipiers de Virginie / Avenue de Bagneux",
        "context": "Bagneux, Hauts-de-Seine",
        "citycode": "92007",
        "depcode": "92"
      }
    },
    {
      "type": "Feature",
      "geometry": {
        "type": "Point",
        "coordinates": [
          2.30700989,
          48.802175499
        ]
      },
      "properties": {
        "name": "Avenue des Tulipiers de Virginie / Avenue des Maraîchers",
        "context": "Bagneux, Hauts-de-Seine",
        "citycode": "92007",
        "depcode": "92"
      }
    },
    {
      "type": "Feature",
      "geometry": {
        "type": "Point",
        "coordinates": [
          2.308681637,
          48.801543495
        ]
      },
      "properties": {
        "name": "Avenue des Tulipiers de Virginie / Avenue du Fort",
        "context": "Bagneux, Hauts-de-Seine",
        "citycode": "92007",
        "depcode": "92"
      }
    },
    {
      "type": "Feature",
      "geometry": {
        "type": "Point",
        "coordinates": [
          2.305315256,
          48.80296436
        ]
      },
      "properties": {
        "name": "Avenue des Tulipiers de Virginie / Avenue Principale",
        "context": "Bagneux, Hauts-de-Seine",
        "citycode": "92007",
        "depcode": "92"
      }
    },
    {
      "type": "Feature",
      "geometry": {
        "type": "Point",
        "coordinates": [
          2.31639539,
          48.809333199
        ]
      },
      "properties": {
        "name": "Avenue du Fort / Avenue de Montrouge",
        "context": "Bagneux, Hauts-de-Seine",
        "citycode": "92007",
        "depcode": "92"
      }
    },
    {
      "type": "Feature",
      "geometry": {
        "type": "Point",
        "coordinates": [
          2.314255183,
          48.807059597
        ]
      },
      "properties": {
        "name": "Avenue du Fort / Avenue des Copalmes",
        "context": "Bagneux, Hauts-de-Seine",
        "citycode": "92007",
        "depcode": "92"
      }
    },
    {
      "type": "Feature",
      "geometry": {
        "type": "Point",
        "coordinates": [
          2.313700933,
          48.80650519
        ]
      },
      "properties": {
        "name": "Avenue du Fort / Avenue des Frênes Monophylles",
        "context": "Bagneux, Hauts-de-Seine",
        "citycode": "92007",
        "depcode": "92"
      }
    },
    {
      "type": "Feature",
      "geometry": {
        "type": "Point",
        "coordinates": [
          2.3079442,
          48.801104426
        ]
      },
      "properties": {
        "name": "Avenue du Fort / Avenue des Maraîchers",
        "context": "Bagneux, Hauts-de-Seine",
        "citycode": "92007",
        "depcode": "92"
      }
    },
    {
      "type": "Feature",
      "geometry": {
        "type": "Point",
        "coordinates": [
          2.315384545,
          48.808170827
        ]
      },
      "properties": {
        "name": "Avenue du Fort / Avenue des Poiriers",
        "context": "Bagneux, Hauts-de-Seine",
        "citycode": "92007",
        "depcode": "92"
      }
    },
    {
      "type": "Feature",
      "geometry": {
        "type": "Point",
        "coordinates": [
          2.296820442,
          48.79771394
        ]
      },
      "properties": {
        "name": "Avenue du Général de Gaulle D68 / Chemin Latéral",
        "context": "Bagneux, Hauts-de-Seine",
        "citycode": "92007",
        "depcode": "92"
      }
    },
    {
      "type": "Feature",
      "geometry": {
        "type": "Point",
        "coordinates": [
          2.296268761,
          48.797841353
        ]
      },
      "properties": {
        "name": "Avenue du Général de Gaulle D68 / La Coulée Verte",
        "context": "Bagneux, Hauts-de-Seine",
        "citycode": "92007",
        "depcode": "92"
      }
    },
    {
      "type": "Feature",
      "geometry": {
        "type": "Point",
        "coordinates": [
          2.299117459,
          48.796994231
        ]
      },
      "properties": {
        "name": "Avenue du Général de Gaulle D68 / Rond-Point Ambroise Croizat",
        "context": "Bagneux, Hauts-de-Seine",
        "citycode": "92007",
        "depcode": "92"
      }
    },
    {
      "type": "Feature",
      "geometry": {
        "type": "Point",
        "coordinates": [
          2.298903416,
          48.79707929
        ]
      },
      "properties": {
        "name": "Avenue du Général de Gaulle D68 / Rue Blanchard D68A",
        "context": "Bagneux, Hauts-de-Seine",
        "citycode": "92007",
        "depcode": "92"
      }
    },
    {
      "type": "Feature",
      "geometry": {
        "type": "Point",
        "coordinates": [
          2.295584506,
          48.798031087
        ]
      },
      "properties": {
        "name": "Avenue du Général de Gaulle D68 / Rue Pierre Semard",
        "context": "Bagneux, Hauts-de-Seine",
        "citycode": "92007",
        "depcode": "92"
      }
    },
    {
      "type": "Feature",
      "geometry": {
        "type": "Point",
        "coordinates": [
          2.298701149,
          48.7925433
        ]
      },
      "properties": {
        "name": "Avenue du Maréchal Foch D74A / Allée du Clos Joli",
        "context": "Bagneux, Hauts-de-Seine",
        "citycode": "92007",
        "depcode": "92"
      }
    },
    {
      "type": "Feature",
      "geometry": {
        "type": "Point",
        "coordinates": [
          2.300692713,
          48.789427691
        ]
      },
      "properties": {
        "name": "Avenue du Maréchal Foch D74A / Place des Brugnauts",
        "context": "Bagneux, Hauts-de-Seine",
        "citycode": "92007",
        "depcode": "92"
      }
    },
    {
      "type": "Feature",
      "geometry": {
        "type": "Point",
        "coordinates": [
          2.298832997,
          48.792368927
        ]
      },
      "properties": {
        "name": "Avenue du Maréchal Foch D74A / Rue des Bénards",
        "context": "Bagneux, Hauts-de-Seine",
        "citycode": "92007",
        "depcode": "92"
      }
    },
    {
      "type": "Feature",
      "geometry": {
        "type": "Point",
        "coordinates": [
          2.297999037,
          48.793236269
        ]
      },
      "properties": {
        "name": "Avenue du Maréchal Foch D74A / Rue Serpentine",
        "context": "Bagneux, Hauts-de-Seine",
        "citycode": "92007",
        "depcode": "92"
      }
    },
    {
      "type": "Feature",
      "geometry": {
        "type": "Point",
        "coordinates": [
          2.297458385,
          48.793677698
        ]
      },
      "properties": {
        "name": "Avenue du Maréchal Foch D74A / D128",
        "context": "Bagneux, Hauts-de-Seine",
        "citycode": "92007",
        "depcode": "92"
      }
    },
    {
      "type": "Feature",
      "geometry": {
        "type": "Point",
        "coordinates": [
          2.307302428,
          48.797648089
        ]
      },
      "properties": {
        "name": "Avenue Gabriel Péri D77A / Avenue Henri Barbusse D77A",
        "context": "Bagneux, Hauts-de-Seine",
        "citycode": "92007",
        "depcode": "92"
      }
    },
    {
      "type": "Feature",
      "geometry": {
        "type": "Point",
        "coordinates": [
          2.303588222,
          48.796982953
        ]
      },
      "properties": {
        "name": "Avenue Gabriel Péri D77A / Place des Droits de l'Enfant",
        "context": "Bagneux, Hauts-de-Seine",
        "citycode": "92007",
        "depcode": "92"
      }
    },
    {
      "type": "Feature",
      "geometry": {
        "type": "Point",
        "coordinates": [
          2.302843408,
          48.796927378
        ]
      },
      "properties": {
        "name": "Avenue Gabriel Péri D77A / Rue des Fossés",
        "context": "Bagneux, Hauts-de-Seine",
        "citycode": "92007",
        "depcode": "92"
      }
    },
    {
      "type": "Feature",
      "geometry": {
        "type": "Point",
        "coordinates": [
          2.307368065,
          48.79757621
        ]
      },
      "properties": {
        "name": "Avenue Gabriel Péri D77A / Rue des Meuniers",
        "context": "Bagneux, Hauts-de-Seine",
        "citycode": "92007",
        "depcode": "92"
      }
    },
    {
      "type": "Feature",
      "geometry": {
        "type": "Point",
        "coordinates": [
          2.303559773,
          48.797042713
        ]
      },
      "properties": {
        "name": "Avenue Gabriel Péri D77A / Rue Étienne Dolet",
        "context": "Bagneux, Hauts-de-Seine",
        "citycode": "92007",
        "depcode": "92"
      }
    },
    {
      "type": "Feature",
      "geometry": {
        "type": "Point",
        "coordinates": [
          2.305148392,
          48.797234294
        ]
      },
      "properties": {
        "name": "Avenue Gabriel Péri D77A / Villa des Olivettes",
        "context": "Bagneux, Hauts-de-Seine",
        "citycode": "92007",
        "depcode": "92"
      }
    },
    {
      "type": "Feature",
      "geometry": {
        "type": "Point",
        "coordinates": [
          2.310446085,
          48.799094703
        ]
      },
      "properties": {
        "name": "Avenue Henri Barbusse D77A / Allée de la Madeleine",
        "context": "Bagneux, Hauts-de-Seine",
        "citycode": "92007",
        "depcode": "92"
      }
    },
    {
      "type": "Feature",
      "geometry": {
        "type": "Point",
        "coordinates": [
          2.307515876,
          48.797714369
        ]
      },
      "properties": {
        "name": "Avenue Henri Barbusse D77A / Avenue Gabriel Péri D77A",
        "context": "Bagneux, Hauts-de-Seine",
        "citycode": "92007",
        "depcode": "92"
      }
    },
    {
      "type": "Feature",
      "geometry": {
        "type": "Point",
        "coordinates": [
          2.318221289,
          48.802872738
        ]
      },
      "properties": {
        "name": "Avenue Henri Barbusse D77A / Avenue Henri Barbusse D77a",
        "context": "Bagneux, Hauts-de-Seine",
        "citycode": "92007",
        "depcode": "92"
      }
    },
    {
      "type": "Feature",
      "geometry": {
        "type": "Point",
        "coordinates": [
          2.307321558,
          48.797615137
        ]
      },
      "properties": {
        "name": "Avenue Henri Barbusse D77A / Rue des Meuniers",
        "context": "Bagneux, Hauts-de-Seine",
        "citycode": "92007",
        "depcode": "92"
      }
    },
    {
      "type": "Feature",
      "geometry": {
        "type": "Point",
        "coordinates": [
          2.308948003,
          48.798384618
        ]
      },
      "properties": {
        "name": "Avenue Henri Barbusse D77A / Rue Marc Sangnier",
        "context": "Bagneux, Hauts-de-Seine",
        "citycode": "92007",
        "depcode": "92"
      }
    },
    {
      "type": "Feature",
      "geometry": {
        "type": "Point",
        "coordinates": [
          2.307427322,
          48.797740024
        ]
      },
      "properties": {
        "name": "Avenue Henri Barbusse D77A / Rue Pierre Brossolette",
        "context": "Bagneux, Hauts-de-Seine",
        "citycode": "92007",
        "depcode": "92"
      }
    },
    {
      "type": "Feature",
      "geometry": {
        "type": "Point",
        "coordinates": [
          2.309783965,
          48.798802295
        ]
      },
      "properties": {
        "name": "Avenue Henri Barbusse D77A / Villa Auboin",
        "context": "Bagneux, Hauts-de-Seine",
        "citycode": "92007",
        "depcode": "92"
      }
    },
    {
      "type": "Feature",
      "geometry": {
        "type": "Point",
        "coordinates": [
          2.315028051,
          48.801212687
        ]
      },
      "properties": {
        "name": "Avenue Henri Barbusse D77A / Voie René Rousseau",
        "context": "Bagneux, Hauts-de-Seine",
        "citycode": "92007",
        "depcode": "92"
      }
    },
    {
      "type": "Feature",
      "geometry": {
        "type": "Point",
        "coordinates": [
          2.301822836,
          48.797047507
        ]
      },
      "properties": {
        "name": "Avenue Henri Ravera / Avenue Gabriel Péri D77A",
        "context": "Bagneux, Hauts-de-Seine",
        "citycode": "92007",
        "depcode": "92"
      }
    },
    {
      "type": "Feature",
      "geometry": {
        "type": "Point",
        "coordinates": [
          2.301847163,
          48.796060962
        ]
      },
      "properties": {
        "name": "Avenue Henri Ravera / Place de la République",
        "context": "Bagneux, Hauts-de-Seine",
        "citycode": "92007",
        "depcode": "92"
      }
    },
    {
      "type": "Feature",
      "geometry": {
        "type": "Point",
        "coordinates": [
          2.302031023,
          48.795965548
        ]
      },
      "properties": {
        "name": "Avenue Henri Ravera / Rue de la Mairie",
        "context": "Bagneux, Hauts-de-Seine",
        "citycode": "92007",
        "depcode": "92"
      }
    },
    {
      "type": "Feature",
      "geometry": {
        "type": "Point",
        "coordinates": [
          2.302009325,
          48.795963213
        ]
      },
      "properties": {
        "name": "Avenue Henri Ravera / Rue de la République",
        "context": "Bagneux, Hauts-de-Seine",
        "citycode": "92007",
        "depcode": "92"
      }
    },
    {
      "type": "Feature",
      "geometry": {
        "type": "Point",
        "coordinates": [
          2.309525431,
          48.800972818
        ]
      },
      "properties": {
        "name": "Avenue Henri Ravera D128 / Rue de Verdun",
        "context": "Bagneux, Hauts-de-Seine",
        "citycode": "92007",
        "depcode": "92"
      }
    },
    {
      "type": "Feature",
      "geometry": {
        "type": "Point",
        "coordinates": [
          2.303243984,
          48.798073109
        ]
      },
      "properties": {
        "name": "Avenue Henri Ravera D128 / Villa Garlande",
        "context": "Bagneux, Hauts-de-Seine",
        "citycode": "92007",
        "depcode": "92"
      }
    },
    {
      "type": "Feature",
      "geometry": {
        "type": "Point",
        "coordinates": [
          2.307894551,
          48.810663162
        ]
      },
      "properties": {
        "name": "Avenue Jean Jaurès D128a / Avenue Marx Dormoy D62",
        "context": "Bagneux, Hauts-de-Seine",
        "citycode": "92007",
        "depcode": "92"
      }
    },
    {
      "type": "Feature",
      "geometry": {
        "type": "Point",
        "coordinates": [
          2.307911875,
          48.810668312
        ]
      },
      "properties": {
        "name": "Avenue Jean Jaurès D128a / Rue Maurice Arnoux D59",
        "context": "Bagneux, Hauts-de-Seine",
        "citycode": "92007",
        "depcode": "92"
      }
    },
    {
      "type": "Feature",
      "geometry": {
        "type": "Point",
        "coordinates": [
          2.302924842,
          48.797933552
        ]
      },
      "properties": {
        "name": "Avenue Jean-Baptiste Fortin D128 / Avenue Henri Ravera D128",
        "context": "Bagneux, Hauts-de-Seine",
        "citycode": "92007",
        "depcode": "92"
      }
    },
    {
      "type": "Feature",
      "geometry": {
        "type": "Point",
        "coordinates": [
          2.299322483,
          48.796892475
        ]
      },
      "properties": {
        "name": "Avenue Jean-Baptiste Fortin D128 / Rond-Point Ambroise Croizat",
        "context": "Bagneux, Hauts-de-Seine",
        "citycode": "92007",
        "depcode": "92"
      }
    },
    {
      "type": "Feature",
      "geometry": {
        "type": "Point",
        "coordinates": [
          2.302979578,
          48.797956636
        ]
      },
      "properties": {
        "name": "Avenue Jean-Baptiste Fortin D128 / Rue Étienne Dolet",
        "context": "Bagneux, Hauts-de-Seine",
        "citycode": "92007",
        "depcode": "92"
      }
    },
    {
      "type": "Feature",
      "geometry": {
        "type": "Point",
        "coordinates": [
          2.298643395,
          48.795387502
        ]
      },
      "properties": {
        "name": "Avenue Jean-Baptiste Fortin D128 / Rue Ledru-Rollin",
        "context": "Bagneux, Hauts-de-Seine",
        "citycode": "92007",
        "depcode": "92"
      }
    },
    {
      "type": "Feature",
      "geometry": {
        "type": "Point",
        "coordinates": [
          2.299263446,
          48.796815873
        ]
      },
      "properties": {
        "name": "Avenue Jean-Baptiste Fortin D128 / Rue Salvador Allende",
        "context": "Bagneux, Hauts-de-Seine",
        "citycode": "92007",
        "depcode": "92"
      }
    },
    {
      "type": "Feature",
      "geometry": {
        "type": "Point",
        "coordinates": [
          2.317155307,
          48.795875395
        ]
      },
      "properties": {
        "name": "Avenue Louis Pasteur D77 / Avenue Albert Petit",
        "context": "Bagneux, Hauts-de-Seine",
        "citycode": "92007",
        "depcode": "92"
      }
    },
    {
      "type": "Feature",
      "geometry": {
        "type": "Point",
        "coordinates": [
          2.31955571,
          48.803431389
        ]
      },
      "properties": {
        "name": "Avenue Louis Pasteur / Avenue Henri Barbusse D77a",
        "context": "Bagneux, Hauts-de-Seine",
        "citycode": "92007",
        "depcode": "92"
      }
    },
    {
      "type": "Feature",
      "geometry": {
        "type": "Point",
        "coordinates": [
          2.317149916,
          48.79586801
        ]
      },
      "properties": {
        "name": "Avenue Louis Pasteur D77 / Avenue Paul Vaillant-Couturier D77",
        "context": "Bagneux, Hauts-de-Seine",
        "citycode": "92007",
        "depcode": "92"
      }
    },
    {
      "type": "Feature",
      "geometry": {
        "type": "Point",
        "coordinates": [
          2.317445932,
          48.797847598
        ]
      },
      "properties": {
        "name": "Avenue Louis Pasteur D77 / Rue des Meuniers",
        "context": "Bagneux, Hauts-de-Seine",
        "citycode": "92007",
        "depcode": "92"
      }
    },
    {
      "type": "Feature",
      "geometry": {
        "type": "Point",
        "coordinates": [
          2.317333369,
          48.797110128
        ]
      },
      "properties": {
        "name": "Avenue Louis Pasteur D77 / Rue Léo Ferré",
        "context": "Bagneux, Hauts-de-Seine",
        "citycode": "92007",
        "depcode": "92"
      }
    },
    {
      "type": "Feature",
      "geometry": {
        "type": "Point",
        "coordinates": [
          2.311590093,
          48.810365691
        ]
      },
      "properties": {
        "name": "Avenue Marx Dormoy D62 / Allée de la Vallière",
        "context": "Bagneux, Hauts-de-Seine",
        "citycode": "92007",
        "depcode": "92"
      }
    },
    {
      "type": "Feature",
      "geometry": {
        "type": "Point",
        "coordinates": [
          2.317571369,
          48.80976269
        ]
      },
      "properties": {
        "name": "Avenue Marx Dormoy D62 / Avenue de Stalingrad",
        "context": "Bagneux, Hauts-de-Seine",
        "citycode": "92007",
        "depcode": "92"
      }
    },
    {
      "type": "Feature",
      "geometry": {
        "type": "Point",
        "coordinates": [
          2.317255828,
          48.809741669
        ]
      },
      "properties": {
        "name": "Avenue Marx Dormoy D62 / Avenue Henri Ravera D128",
        "context": "Bagneux, Hauts-de-Seine",
        "citycode": "92007",
        "depcode": "92"
      }
    },
    {
      "type": "Feature",
      "geometry": {
        "type": "Point",
        "coordinates": [
          2.319073331,
          48.80997553
        ]
      },
      "properties": {
        "name": "Avenue Marx Dormoy D62 / Avenue Marx Dormoy D161",
        "context": "Bagneux, Hauts-de-Seine",
        "citycode": "92007",
        "depcode": "92"
      }
    },
    {
      "type": "Feature",
      "geometry": {
        "type": "Point",
        "coordinates": [
          2.319021533,
          48.809943551
        ]
      },
      "properties": {
        "name": "Avenue Marx Dormoy D62 / Rue du Colonel Fabien",
        "context": "Bagneux, Hauts-de-Seine",
        "citycode": "92007",
        "depcode": "92"
      }
    },
    {
      "type": "Feature",
      "geometry": {
        "type": "Point",
        "coordinates": [
          2.312827256,
          48.810263179
        ]
      },
      "properties": {
        "name": "Avenue Marx Dormoy D62 / Rue Fénelon",
        "context": "Bagneux, Hauts-de-Seine",
        "citycode": "92007",
        "depcode": "92"
      }
    },
    {
      "type": "Feature",
      "geometry": {
        "type": "Point",
        "coordinates": [
          2.309947098,
          48.810505286
        ]
      },
      "properties": {
        "name": "Avenue Marx Dormoy D62 / Rue Hippolyte Mulin",
        "context": "Bagneux, Hauts-de-Seine",
        "citycode": "92007",
        "depcode": "92"
      }
    },
    {
      "type": "Feature",
      "geometry": {
        "type": "Point",
        "coordinates": [
          2.307940969,
          48.810677023
        ]
      },
      "properties": {
        "name": "Avenue Marx Dormoy D62 / Rue Maurice Arnoux D59",
        "context": "Bagneux, Hauts-de-Seine",
        "citycode": "92007",
        "depcode": "92"
      }
    },
    {
      "type": "Feature",
      "geometry": {
        "type": "Point",
        "coordinates": [
          2.316421227,
          48.809962129
        ]
      },
      "properties": {
        "name": "Avenue Marx Dormoy D62 / Villa de la République",
        "context": "Bagneux, Hauts-de-Seine",
        "citycode": "92007",
        "depcode": "92"
      }
    },
    {
      "type": "Feature",
      "geometry": {
        "type": "Point",
        "coordinates": [
          2.315182216,
          48.791651109
        ]
      },
      "properties": {
        "name": "Avenue Paul Vaillant-Couturier D77 / Allée de l'Abbé Grégoire",
        "context": "Bagneux, Hauts-de-Seine",
        "citycode": "92007",
        "depcode": "92"
      }
    },
    {
      "type": "Feature",
      "geometry": {
        "type": "Point",
        "coordinates": [
          2.315486451,
          48.792417159
        ]
      },
      "properties": {
        "name": "Avenue Paul Vaillant-Couturier D77 / Allée Mirabeau",
        "context": "Bagneux, Hauts-de-Seine",
        "citycode": "92007",
        "depcode": "92"
      }
    },
    {
      "type": "Feature",
      "geometry": {
        "type": "Point",
        "coordinates": [
          2.317122901,
          48.795852565
        ]
      },
      "properties": {
        "name": "Avenue Paul Vaillant-Couturier D77 / Avenue Albert Petit",
        "context": "Bagneux, Hauts-de-Seine",
        "citycode": "92007",
        "depcode": "92"
      }
    },
    {
      "type": "Feature",
      "geometry": {
        "type": "Point",
        "coordinates": [
          2.319753895,
          48.790873737
        ]
      },
      "properties": {
        "name": "Avenue Paul Vaillant-Couturier / Avenue Aristide Briand D920",
        "context": "Bagneux, Hauts-de-Seine",
        "citycode": "92007",
        "depcode": "92"
      }
    },
    {
      "type": "Feature",
      "geometry": {
        "type": "Point",
        "coordinates": [
          2.316509527,
          48.794512572
        ]
      },
      "properties": {
        "name": "Avenue Paul Vaillant-Couturier D77 / Rue de la Liberté",
        "context": "Bagneux, Hauts-de-Seine",
        "citycode": "92007",
        "depcode": "92"
      }
    },
    {
      "type": "Feature",
      "geometry": {
        "type": "Point",
        "coordinates": [
          2.31690026,
          48.795366804
        ]
      },
      "properties": {
        "name": "Avenue Paul Vaillant-Couturier D77 / Sentier de la Pointe des Buttes",
        "context": "Bagneux, Hauts-de-Seine",
        "citycode": "92007",
        "depcode": "92"
      }
    },
    {
      "type": "Feature",
      "geometry": {
        "type": "Point",
        "coordinates": [
          2.304425288,
          48.802133134
        ]
      },
      "properties": {
        "name": "Avenue Principale / Avenue de Fontenay",
        "context": "Bagneux, Hauts-de-Seine",
        "citycode": "92007",
        "depcode": "92"
      }
    },
    {
      "type": "Feature",
      "geometry": {
        "type": "Point",
        "coordinates": [
          2.30587755,
          48.80354198
        ]
      },
      "properties": {
        "name": "Avenue Principale / Avenue de l'Aulnaie",
        "context": "Bagneux, Hauts-de-Seine",
        "citycode": "92007",
        "depcode": "92"
      }
    },
    {
      "type": "Feature",
      "geometry": {
        "type": "Point",
        "coordinates": [
          2.312368954,
          48.809972733
        ]
      },
      "properties": {
        "name": "Avenue Principale / Avenue de Montrouge",
        "context": "Bagneux, Hauts-de-Seine",
        "citycode": "92007",
        "depcode": "92"
      }
    },
    {
      "type": "Feature",
      "geometry": {
        "type": "Point",
        "coordinates": [
          2.304768336,
          48.802437263
        ]
      },
      "properties": {
        "name": "Avenue Principale / Avenue des Féviers d'Amérique",
        "context": "Bagneux, Hauts-de-Seine",
        "citycode": "92007",
        "depcode": "92"
      }
    },
    {
      "type": "Feature",
      "geometry": {
        "type": "Point",
        "coordinates": [
          2.312008328,
          48.809626365
        ]
      },
      "properties": {
        "name": "Avenue Principale / Avenue des Poiriers",
        "context": "Bagneux, Hauts-de-Seine",
        "citycode": "92007",
        "depcode": "92"
      }
    },
    {
      "type": "Feature",
      "geometry": {
        "type": "Point",
        "coordinates": [
          2.320683591,
          48.804094776
        ]
      },
      "properties": {
        "name": "Avenue Victor Hugo / Allée des Martyrs Châteaubriant",
        "context": "Bagneux, Hauts-de-Seine",
        "citycode": "92007",
        "depcode": "92"
      }
    },
    {
      "type": "Feature",
      "geometry": {
        "type": "Point",
        "coordinates": [
          2.325779097,
          48.806378749
        ]
      },
      "properties": {
        "name": "Avenue Victor Hugo D77a / Avenue Aristide Briand D920",
        "context": "Bagneux, Hauts-de-Seine",
        "citycode": "92007",
        "depcode": "92"
      }
    },
    {
      "type": "Feature",
      "geometry": {
        "type": "Point",
        "coordinates": [
          2.31966726,
          48.803455395
        ]
      },
      "properties": {
        "name": "Avenue Victor Hugo D77a / Avenue Louis Pasteur",
        "context": "Bagneux, Hauts-de-Seine",
        "citycode": "92007",
        "depcode": "92"
      }
    },
    {
      "type": "Feature",
      "geometry": {
        "type": "Point",
        "coordinates": [
          2.322669645,
          48.804942422
        ]
      },
      "properties": {
        "name": "Avenue Victor Hugo D77a / Rue Jean Marin Naudin",
        "context": "Bagneux, Hauts-de-Seine",
        "citycode": "92007",
        "depcode": "92"
      }
    },
    {
      "type": "Feature",
      "geometry": {
        "type": "Point",
        "coordinates": [
          2.296865272,
          48.797703934
        ]
      },
      "properties": {
        "name": "Chemin Latéral / Avenue du Général de Gaulle D68",
        "context": "Bagneux, Hauts-de-Seine",
        "citycode": "92007",
        "depcode": "92"
      }
    },
    {
      "type": "Feature",
      "geometry": {
        "type": "Point",
        "coordinates": [
          2.296816059,
          48.797684927
        ]
      },
      "properties": {
        "name": "Chemin Latéral / La Coulée Verte",
        "context": "Bagneux, Hauts-de-Seine",
        "citycode": "92007",
        "depcode": "92"
      }
    },
    {
      "type": "Feature",
      "geometry": {
        "type": "Point",
        "coordinates": [
          2.300144482,
          48.792963441
        ]
      },
      "properties": {
        "name": "Clos des Bénards / Rue des Bénards",
        "context": "Bagneux, Hauts-de-Seine",
        "citycode": "92007",
        "depcode": "92"
      }
    },
    {
      "type": "Feature",
      "geometry": {
        "type": "Point",
        "coordinates": [
          2.314875656,
          48.7956396
        ]
      },
      "properties": {
        "name": "Impasse de la Concorde / Avenue Albert Petit",
        "context": "Bagneux, Hauts-de-Seine",
        "citycode": "92007",
        "depcode": "92"
      }
    },
    {
      "type": "Feature",
      "geometry": {
        "type": "Point",
        "coordinates": [
          2.301528108,
          48.788590288
        ]
      },
      "properties": {
        "name": "Impasse de la Renardière / Rue des Brugnauts",
        "context": "Bagneux, Hauts-de-Seine",
        "citycode": "92007",
        "depcode": "92"
      }
    },
    {
      "type": "Feature",
      "geometry": {
        "type": "Point",
        "coordinates": [
          2.305200792,
          48.79433232
        ]
      },
      "properties": {
        "name": "Impasse des Monceaux / Allée de Chevreuse",
        "context": "Bagneux, Hauts-de-Seine",
        "citycode": "92007",
        "depcode": "92"
      }
    },